[
  {
    "objectID": "1",
    "priority": "2",
    "published": "yes",
    "submitted_by": "jessie.dean@lornajane.com.au",
    "name": "Lorna Jane UK Active Nation Day",
    "country": "United Kingdom",
    "city": "London",
    "suburb": "London",
    "state": "SE1",
    "postcode": "6DP",
    "location": "103 Gaunt St",
    "time": "11:30am",
    "start_time": "11:30am",
    "finish_time": "5:30pm",
    "image_path": "http://5c4cf848f6454dc02ec8-c49fe7e7355d384845270f4a7a0a7aa1.r53.cf2.rackcdn.com/cf6baea2-e3b2-49b3-9fae-2e6f55343d83/Header-banner.jpg",
    "description": "This year in London, Move, Nourish and Believe with us on Sunday 24th September in partnership with Ministry Does Fitness. Enjoy workouts, workshops, food, and beauty from London‚Äôs best. Bring with you your water bottle, sweat towel and high energy!",
    "url": "http://www.lornajane.co.uk/news/activenationday/"
  },
  {
    "objectID": "2",
    "priority": "2",
    "published": "yes",
    "submitted_by": "janelle.cherniwchan@lornajane.com",
    "name": "Lorna Jane Quebec City Active Nation Day",
    "country": "Canada",
    "city": "Quebec",
    "suburb": "",
    "state": "Quebec",
    "postcode": "G3B2J8",
    "location": "Entourage sur-le-Lac - 99 Chemin du Tour-du-Lac",
    "time": "1pm",
    "start_time": "1pm",
    "finish_time": "3pm",
    "image_path": "http://5c4cf848f6454dc02ec8-c49fe7e7355d384845270f4a7a0a7aa1.r53.cf2.rackcdn.com/cf6baea2-e3b2-49b3-9fae-2e6f55343d83/Header-banner.jpg",
    "description": "Get ready to do a whole lot of MOVING, NOURISHING and BELIEVING with Samantha Ushedo and F45 Training plus shop the MNB Markets.",
    "url": "https://www.facebook.com/events/2041710602716835/?active_tab=discussion"
  },
  {
    "objectID": "3",
    "priority": "1",
    "published": "yes",
    "submitted_by": "jessie.dean@lornajane.com.au",
    "name": "Lorna Jane Brisbane Active Nation Day",
    "country": "Australia",
    "city": "Brisbane",
    "suburb": "Eagle Farm",
    "state": "Queensland",
    "postcode": "4009",
    "location": "Northshore, 282 MacArthur Ave",
    "time": "7am",
    "start_time": "7am",
    "finish_time": "12pm",
    "image_path": "http://5c4cf848f6454dc02ec8-c49fe7e7355d384845270f4a7a0a7aa1.r53.cf2.rackcdn.com/cf6baea2-e3b2-49b3-9fae-2e6f55343d83/Header-banner.jpg",
    "description": "Your Move Matters! Join Lorna Jane Clarkson on Sunday 24th September along with the BUF Girls and let your actions speak louder than words by inspiring others to move towards a fitter future.",
    "url": "https://www.eventbrite.com.au/e/active-nation-day-brisbane-2017-tickets-37585440063?aff=es2"
  },
  {
    "objectID": "4",
    "priority": "2",
    "published": "yes",
    "submitted_by": "jessie.dean@lornajane.com.au",
    "name": "Lorna Jane Los Angeles Active Nation Day",
    "country": "USA",
    "city": "Los Angeles",
    "suburb": "Santa Monica",
    "state": "California",
    "postcode": "90401",
    "location": "Santa Monica Place - Center Plaza, 395 Santa Monica Place",
    "time": "10am",
    "start_time": "10am",
    "finish_time": "12pm",
    "image_path": "",
    "description": "Wear your brightest Lorna Jane, pack a towel, your water bottle and get ready to sweat! Our 30-minute MOVE class will be a fusion of strength and movements guided by Katie Dunlop of Love Sweat Fitness! Followed by a Yoga cool down.",
    "url": "https://www.eventbrite.com/e/active-nation-day-los-angeles-2017-tickets-37713499091"
  },
  {
    "objectID": "5",
    "priority": "3",
    "published": "yes",
    "submitted_by": "ely.moreno@lornajane.mx",
    "name": "Active Nation Day Mexico",
    "country": "Mexico",
    "city": "Mexico City",
    "suburb": "Nuevo Polanco",
    "state": "CP",
    "postcode": "11529",
    "location": "PLAZA CARSO. Lago Zurich 219-245",
    "time": "1pm",
    "start_time": "1pm",
    "finish_time": "3pm",
    "image_path": "",
    "description": "Muevete este 24 de Septiembre con Brenda Medina Yoga y Fit 7/8, mujeres renovando su compromiso para mantenerse activas, moviendose al ritmo de la musica en esta clase masiva.",
    "url": "https://www.facebook.com/events/1448712405194083/?context=create&previousaction=create&ref=42&sid_create=2302753766&action_history=[%7B%22surface%22%3A%22create_dialog%22%2C%22mechanism%22%3A%22page_create_dialog%22%2C%22extra_data%22%3A[]%7D]&has_source=1"
  },
  {
    "objectID": "6",
    "priority": "2",
    "published": "yes",
    "submitted_by": "jessie.dean@lornajane.com.au",
    "name": "Lorna Jane Toronto Active Nation Day",
    "country": "Canada",
    "city": "Toronto",
    "suburb": "North York",
    "state": "ON",
    "postcode": "M3C 3R6",
    "location": "CF Shops at Don Mills - 1090 Don Mills Rd",
    "time": "7am",
    "start_time": "7am",
    "finish_time": "2pm",
    "image_path": "",
    "description": "Get ready to do a whole lot of MOVING, NOURISHING and BELIEVING with Samantha Ushedo and F45 Training plus shop the MNB Markets.",
    "url": "https://www.facebook.com/events/2041710602716835/?active_tab=discussion"
  },
  {
    "objectID": "7",
    "priority": "3",
    "published": "yes",
    "submitted_by": "runawaybay@f45training.com.au",
    "name": "Get moving with F45 Runaway Bay",
    "country": "Australia",
    "city": "Gold Coast",
    "suburb": "Runaway Bay",
    "state": "Queensland",
    "postcode": "4216",
    "location": "4/445 Oxley Drive",
    "time": "7am",
    "start_time": "7am",
    "finish_time": "2pm",
    "image_path": "",
    "description": "45 min functional circuit Class - 12:30pm. 1 hour Yoga with Merry Maker Sisters - 1:30pm. Afternoon tea.",
    "url": "https://www.facebook.com/f45runawaybay/?ref=br_rs"
  },
  {
    "objectID": "8",
    "priority": "3",
    "published": "yes",
    "submitted_by": "gelmpaix1@bigpond.com",
    "name": "Jazzercise Nambour National Active Day",
    "country": "Australia",
    "city": "Sunshine Coast",
    "suburb": "Nambour",
    "state": "Queensland",
    "postcode": "4560",
    "location": "Currie Street (enter via Howard Street)",
    "time": "8:30am",
    "start_time": "8:30am",
    "finish_time": "10:45am",
    "image_path": "",
    "description": "Jazzercise Nambour will provide FREE fitness classes to the community and talk about the benefits of keeping active.",
    "url": "https://www.facebook.com/JazzerciseNambour"
  },
  {
    "objectID": "9",
    "priority": "3",
    "published": "yes",
    "submitted_by": "info@theathena.co.uk",
    "name": "Active Nation Day Bootcamp",
    "country": "United Kingdom",
    "city": "Aberdeen",
    "suburb": "",
    "state": "Aberdeen",
    "postcode": "",
    "location": "Athena Gym",
    "time": "9am",
    "start_time": "9am",
    "finish_time": "10:45am",
    "image_path": "",
    "description": "Bootcamp taster even to raise awareness for fitness and fun.",
    "url": ""
  },
  {
    "objectID": "10",
    "priority": "3",
    "published": "yes",
    "submitted_by": "getphysical5@bigpond.com",
    "name": "2-Hour Fitness Challenge",
    "country": "Australia",
    "city": "Alice Springs",
    "suburb": "",
    "state": "Northern Territory",
    "postcode": "0870",
    "location": "Get Physical Fitness and Squash Centre",
    "time": "15:00",
    "start_time": "3pm",
    "finish_time": "",
    "image_path": "",
    "description": "We dare YOU! Face your biggest fear and workout for 2 hours with Get Physical! Like to compete? Dare a friend and join us together!",
    "url": "https://www.facebook.com/Get-Physical-104393062958102/"
  },
  {
    "objectID": "11",
    "priority": "2",
    "published": "yes",
    "submitted_by": "hola@activeliving.es",
    "name": "ACTIVE NATION DAY MALLORCA",
    "country": "Spain",
    "city": "Palma",
    "suburb": "",
    "state": "Balearic Islands",
    "postcode": "07001",
    "location": "Parc de la Mar",
    "time": "13:00",
    "start_time": "1pm",
    "finish_time": "2pm",
    "image_path": "",
    "description": "Move your body with Low Pressure Fitness, a whole body program exercise that integrates core, pelvic floor and diaphragm.",
    "url": "http://www.activeliving.es/activenationday"
  },
  {
    "objectID": "12",
    "priority": "2",
    "published": "yes",
    "submitted_by": "jessie.dean@lornajane.com.au",
    "name": "Active Nation Day Quebec City",
    "country": "Canada",
    "city": "Lac-Beauport",
    "suburb": "",
    "state": "QB",
    "postcode": "G3B 0T1",
    "location": "RESORT ENTOURAGE SUR-LE-LAC 99 Chemin du Tour-du-Lac",
    "time": "1pm-3pm",
    "start_time": "1pm",
    "finish_time": "3pm",
    "image_path": "",
    "description": "Your Move Matters! Join us on Sunday 24th September and let your actions speak louder than words by inspiring others to move towards a fitter future.",
    "url": "https://www.eventbrite.com/e/active-nation-day-in-quebec-city-tickets-37437825544"
  },
  {
    "objectID": "13",
    "priority": "2",
    "published": "yes",
    "submitted_by": "janelle.cherniwchan@lornajane.com",
    "name": "Active Nation Day Montreal",
    "country": "Canada",
    "city": "Montreal",
    "suburb": "QB",
    "state": "",
    "postcode": "H3A 1W6",
    "location": "Club Sportif MAA 2070 Rue Peel",
    "time": "9:30-4PM",
    "start_time": "9:30am",
    "finish_time": "4pm",
    "image_path": "",
    "description": "Your Move Matters! Join us on Sunday 24th September at Club Sportif MAA and let your actions speak louder than words by inspiring others to move towards a fitter future.",
    "url": "https://www.eventbrite.com/e/active-nation-day-in-montreal-tickets-37819810070"
  },
  {
    "objectID": "14",
    "priority": "2",
    "published": "yes",
    "submitted_by": "janelle.cherniwchan@lornajane.com",
    "name": "Active Nation Day in Vancouver",
    "country": "Canada",
    "city": "Vancouver",
    "suburb": "",
    "state": "BC",
    "postcode": "V6B2T4",
    "location": "1038 Mainland Street",
    "time": "11:30am",
    "start_time": "11:30am",
    "finish_time": "3pm",
    "image_path": "",
    "description": "Your Move Matters! Join us on Sunday 24th September along with the Barre Fitness & Fit in 30 Minutes and let your actions speak louder than words by inspiring others to move towards a fitter future.",
    "url": "https://www.eventbrite.com/e/active-nation-day-in-vancouver-tickets-37819272462"
  },
  {
    "objectID": "15",
    "priority": "2",
    "published": "yes",
    "submitted_by": "thuy@lornajane.com.vn",
    "name": "Active Nation Day 2017 Vi·ªát Nam",
    "country": "Viet Nam",
    "city": "TP.H·ªì Ch√≠ Minh",
    "suburb": "",
    "state": "",
    "postcode": "01 Huy·ªÅn Tr√¢n C√¥ng Ch√∫a, Qu·∫≠n 1",
    "location": "D√°ng Ng·ªçc Spa",
    "time": "17:30",
    "start_time": "5:30pm",
    "finish_time": "",
    "image_path": "",
    "description": "Ch∆∞∆°ng tr√¨nh di·ªÖn ra t·ª´ 17:30 ‚Äì 21:00 g·ªìm 2 l·ªõp Yoga t·∫°i D√°ng Ng·ªçc spa, ti·ªác tr√† nh·ªè v√† ho·∫°t ƒë·ªông mua s·∫Øm v·ªõi c√°c ch∆∞∆°ng tr√¨nh ∆∞u ƒë√£i ƒë·∫∑c bi·ªát.",
    "url": "https://www.facebook.com/activewomenvietnam/photos/a.1556460621252536.1073741828.1556448091253789/2028275017404425/?type=3&source=48"
  },
  {
    "objectID": "16",
    "priority": "3",
    "published": "yes",
    "submitted_by": "thefitnesstemple.au@gmail.com",
    "name": "LORNA JANE & THE JUNGLE BODY ADELAIDE ACTIVE NATION DAY",
    "country": "Australia",
    "city": "Adelaide",
    "suburb": "Adelaide",
    "state": "South Australia",
    "postcode": "5000",
    "location": "93 Rundle Mall",
    "time": "8:45am",
    "start_time": "8:45am",
    "finish_time": "",
    "image_path": "",
    "description": "Adelaide!! Join us and make your MOVE on Sunday 24th September as we celebrate the launch of Rundle Mall's new Active Living Room! Enjoy free dance fitness workouts, nourishing snacks and your fave active wear sales from Rundle Mall. Bring your water bottle, sweat towel, girlfriends and smiles! üíñ",
    "url": ""
  },
  {
    "objectID": "17",
    "priority": "3",
    "published": "yes",
    "submitted_by": "jamie_masoner89@hotmail.com",
    "name": "REEF TO ROCKS RUN",
    "country": "Australia",
    "city": "Mindarie",
    "suburb": "",
    "state": "Western Australia",
    "postcode": "6030",
    "location": "Rosslane Promenade ",
    "time": "07:30",
    "start_time": "7:30am",
    "finish_time": "",
    "image_path": "",
    "description": "A run, walk or cycle to get active, raise awareness and raise well needed funds for the Heart Foundation. ",
    "url": "https://www.facebook.com/events/473323093028948/?ti=cl"
  },
  {
    "objectID": "18",
    "priority": "2",
    "published": "yes",
    "submitted_by": "jaclyn.maginnis@lornajane.com.au",
    "name": "Active Nation Day Malaysia 2017",
    "country": "Malaysia",
    "city": "Kuala Lumpur",
    "suburb": "",
    "state": "",
    "postcode": "55100",
    "location": "Lorna Jane Pavilion Elite Lot 5.102.01, Level 5, Pavilion Elite",
    "time": "10am",
    "start_time": "10am",
    "finish_time": "1pm",
    "image_path": "",
    "description": "",
    "url": "https://www.eventbrite.com/myevent?eid=37838266273"
  },
  {
    "objectID": "19",
    "priority": "2",
    "published": "yes",
    "submitted_by": "jaclyn.maginnis@lornajane.com.au",
    "name": "Nice Active Nation Day",
    "country": "France",
    "city": "Nice",
    "suburb": "",
    "state": "",
    "postcode": "06000",
    "location": "Les cours se font au d√©part de la boutique Lorna Jane Nice au 22, Rue de la Libert√©",
    "time": "09:00",
    "start_time": "9am",
    "finish_time": "",
    "image_path": "",
    "description": "09H00 - 10H00 : Cours de yoga ‚Äì R√©veil en douceur avec Marielle en partenariat avec Le Galet Plage ‚Äì Merci d'apporter votre tapis 10H30 - 11H30 : Session HIIT avec Claudia (en plein air) - Merci d'apporter votre tapis 11H30 - 13H30 : Atelier sur les bienfaits de l‚ÄôAloe Vera, test & diagnostique",
    "url": "http://bit.ly/2fdkK5L"
  },
  {
    "objectID": "20",
    "priority": "2",
    "published": "yes",
    "submitted_by": "alyssa.rosete@lornajane.com",
    "name": "Active Nation Day Philippines",
    "country": "Philippines",
    "city": "Taguig City",
    "suburb": "",
    "state": "",
    "postcode": "1550",
    "location": "F45 Training, BGC Stopover",
    "time": "8:00am - 11:00am",
    "start_time": "8am",
    "finish_time": "11am",
    "image_path": "",
    "description": "Your Move Matters! Join us on Sunday 24th September for a Lorna Jane Functional Workout by F45, followed by a Hot Yoga Session led by LiFE Yoga. Let's move together towards a fitter future!",
    "url": "https://www.eventbrite.com/e/active-nation-day-philippines-2017-tickets-37798467233"
  },
  {
    "objectID": "21",
    "priority": "2",
    "published": "yes",
    "submitted_by": "jaclyn.maginnis@lornajane.com.au",
    "name": "Austria Active Nation Day",
    "country": "Austria",
    "city": "Salzburg",
    "suburb": "5020",
    "state": "",
    "postcode": "",
    "location": "Im vita club Salzburg ‚Äì Im gr√∂√üten Fitness-Club in West √ñsterreich",
    "time": "9:30am",
    "start_time": "9:30am",
    "finish_time": "11:30am",
    "image_path": "",
    "description": "9.30am‚Äì10.30am Step Party und 10.30am‚Äì11.30am IN Shape mit Andrea Eckerl Mach mit und sei dabei am Active Nation Day! Kostenlos f√ºr alle. Anmeldung bitte vorort an der vita club Rezeption mit dem Kennwort: Active Nation Day",
    "url": "https://www.lornajane.at/activenationday_lornajane_austria"
  },
  {
    "objectID": "22",
    "priority": "2",
    "published": "yes",
    "submitted_by": "jaclyn.maginnis@lornajane.com.au",
    "name": "Durban Active Nation Day",
    "country": "South Africa",
    "city": "Durban",
    "suburb": "Ballito",
    "state": "KZN",
    "postcode": "4390",
    "location": "Sugar Rush Park, Esenembe Rd",
    "time": "07:00",
    "start_time": "7am",
    "finish_time": "",
    "image_path": "",
    "description": "This event is FREE of charge but you have to get your free ticket online. This ticket will enable you to REGISTER on the day at the event. TICKETS ARE LIMITED! The first 100 ladies to REGISTER ON THE DAY, at the event, will receive a fabulous LORNA JANE GOODIE BAG! ON THE DAY: 7am - 8am: Registration, Class 1: HIIT, Class 2: Pilates, Class 3: Yoga. Fabulous prizes up for grabs, for the most enthusiastic sisters! *BRING YOUR OWN YOGA MAT, SWEAT TOWEL & SUNSCREEN* Remember to share the event with all your lady friends and family. Looking forward to seeing all of you there - Let's get MOVING!",
    "url": "http://qkt.io/E0WxtL"
  },
  {
    "objectID": "23",
    "priority": "2",
    "published": "yes",
    "submitted_by": "jaclyn.maginnis@lornajane.com.au",
    "name": "Cape Town Active Nation Day",
    "country": "South Africa",
    "city": "Cape Town",
    "suburb": "Clifton",
    "state": "",
    "postcode": "8005",
    "location": "The Bungalow, Glen Country Club, 3 Victoria Rd",
    "time": "08:00",
    "start_time": "8am",
    "finish_time": "",
    "image_path": "",
    "description": "This event is FREE of charge but you have to get your free ticket online. This ticket will enable you to REGISTER on the day at the event. TICKETS ARE LIMITED! The first 100 ladies to REGISTER ON THE DAY, at the event, will receive a fabulous LORNA JANE GOODIE BAG!",
    "url": "http://qkt.io/i0EWB5"
  },
  {
    "objectID": "24",
    "priority": "2",
    "published": "yes",
    "submitted_by": "sandy.goh@lornajane.my",
    "name": "Malaysia Active Nation Day",
    "country": "Malaysia",
    "city": "Kuala Lumpur",
    "suburb": "",
    "state": "KL",
    "postcode": "55100",
    "location": "Lorna Jane Level 5 Pavilion Elite, Bukit Bintang Street",
    "time": "10am - 1pm",
    "start_time": "10am",
    "finish_time": "1pm",
    "image_path": "",
    "description": "10.00am- HIIT Surge, 11.00am- HIIT Bosu, 12pm- Yoga. Enjoy 40% off clearance stock and 20% off when you buy a set.",
    "url": "https://www.facebook.com/LornaJaneMalaysia/"
  },
  {
    "objectID": "25",
    "priority": "3",
    "published": "yes",
    "submitted_by": "staceyc@xtendbarre.com",
    "name": "Active Nation Xtend Barre Burleigh",
    "country": "Australia",
    "city": "Gold Coast",
    "suburb": "Burleigh Heads",
    "state": "Queensland",
    "postcode": "4220",
    "location": "8/3 Park Avenue",
    "time": "",
    "start_time": "",
    "finish_time": "",
    "image_path": "",
    "description": "It's Active Nation Day! Join us for a FREE Xtend Barre class! Xtend Barre is a 55 minute total body workout! Pilates and Dance Amplified! Developed from a dance/Pilates background, the Xtend Barre workout combines the amazing results of dance, with the principles of strength and safety in Pilates.",
    "url": "https://clients.mindbodyonline.com/classic/ws?studioid=450266&stype=-7&sView=day&sLoc=0&date=09/24/17"
  },
  {
    "objectID": "26",
    "priority": "3",
    "published": "yes",
    "submitted_by": "namaste@bohemeandbody.com.au",
    "name": "Boheme Yoga",
    "country": "Australia",
    "city": "Gold Coast",
    "suburb": "Varsity Lakes",
    "state": "Qld",
    "postcode": "4227",
    "location": "Boheme + Body Wellness Shala Christine Corner Shopping Centre Cnr of Christine Avenue & Bermuda Street",
    "time": "8am and 4.30pm",
    "start_time": "8am",
    "finish_time": "4:30pm",
    "image_path": "http://5c4cf848f6454dc02ec8-c49fe7e7355d384845270f4a7a0a7aa1.r53.cf2.rackcdn.com/ee9a8a9d-d869-4b01-b2ac-aaacc01ba7bd/_MG_0910-1.jpg",
    "description": "We are offering a 8am general yoga and 4.30pm yin yoga class for free!",
    "url": ""
  },
  {
    "objectID": "27",
    "priority": "3",
    "published": "yes",
    "submitted_by": "nicole.stanier@gmail.com",
    "name": "STRONG by Zumba FREE class!",
    "country": "Australia",
    "city": "Townsville",
    "suburb": "Kirwan",
    "state": "QLD",
    "postcode": "4817",
    "location": "22-24 Castlemaine ",
    "time": "08:00",
    "start_time": "8am",
    "finish_time": "",
    "image_path": "http://5c4cf848f6454dc02ec8-c49fe7e7355d384845270f4a7a0a7aa1.r53.cf2.rackcdn.com/c363e840-f5d7-4bf5-9e75-1cecc1f09394/STRONG%20-%20Active%20nation%20day.jpg",
    "description": "Body weight, muscle conditioning, cardio and plyometric training moves synced to original music that has been specifically designed to match every single move.",
    "url": "https://clients.mindbodyonline.com/classic/ws?studioid=429874&stype=-7&sTG=22&sView=day&sLoc=0&date=09/24/17"
  },
  {
    "objectID": "28",
    "priority": "2",
    "published": "yes",
    "submitted_by": "jaclyn.maginnis@lornajane.com.au",
    "name": "Paris Active Nation Day ",
    "country": "France",
    "city": "Paris",
    "suburb": "",
    "state": "",
    "postcode": "75009",
    "location": "RDV sur le corner Lorna Jane - 4√®me √©tage des Galeries Lafayette Haussmann (Espace Fashion Sport)",
    "time": "11:30",
    "start_time": "11:30am",
    "finish_time": "",
    "image_path": "",
    "description": "11H30 - 12h30 : Session de Body Zen avec C√©cile (Subtile m√©lange de Yoga, Tai Chi et Pilates). 12H45 ‚Äì 13H30 : Full Body Burn avec Lucie. 13H45 ‚Äì 14H30 : Conf√©rence 'Nourish to Flourish' ‚Äì L‚Äôalimentation notre premi√®re m√©decine avec Lizette de Atentic (Coaching en bien-√™tre, nutrition & style de vie). 11H45 - 15H30 : Animation beaut√©.",
    "url": "http://bit.ly/2fdkK5L"
  },
  {
    "objectID": "29",
    "priority": "3",
    "published": "yes",
    "submitted_by": "",
    "name": "Active Nation Day at BodyByBrandt",
    "country": "Canada",
    "city": "Coquitlam",
    "suburb": "",
    "state": "",
    "postcode": "11111",
    "location": "B-1100 Landsdowne Drive",
    "time": "9:00am",
    "start_time": "9am",
    "finish_time": "",
    "image_path": "",
    "description": "Fit, fun and calorie burning classes back to back with like minded women!",
    "url": ""
  },
  {
    "objectID": "30",
    "priority": "3",
    "published": "yes",
    "submitted_by": "karls66@hotmail.com",
    "name": "Active Nation Day Narrabri",
    "country": "Australia",
    "city": "Narrabri",
    "suburb": "",
    "state": "NSW",
    "postcode": "2390",
    "location": "Colin's Park Oval",
    "time": "8am",
    "start_time": "8am",
    "finish_time": "",
    "image_path": "http://5c4cf848f6454dc02ec8-c49fe7e7355d384845270f4a7a0a7aa1.r53.cf2.rackcdn.com/bd223c08-3a50-4ee0-b785-7dedf6cf39f4/IMG_9282.PNG",
    "description": "Celebrate active nation day with your friends and community as well as everyone around Australia. Have fun - get moving and enjoy the sunshine. Wear your best active wear and get your summer sweat on with us.",
    "url": ""
  },
  {
    "objectID": "31",
    "priority": "2",
    "published": "yes",
    "submitted_by": "ljusa34@lornajane.com",
    "name": "Cowboy Fit & Lorna Jane",
    "country": "United States",
    "city": "Frisco",
    "suburb": "",
    "state": "Texas",
    "postcode": "75034",
    "location": "Lorna Jane Stonebriar Mall",
    "time": "",
    "start_time": "",
    "finish_time": "",
    "image_path": "http://5c4cf848f6454dc02ec8-c49fe7e7355d384845270f4a7a0a7aa1.r53.cf2.rackcdn.com/b0c9d3d7-bede-409e-8646-2eea4df4651b/Active%20Nation%20%233%20eblast.jpg",
    "description": "Zumba Class",
    "url": ""
  },
  {
    "objectID": "32",
    "priority": "3",
    "published": "yes",
    "submitted_by": "sue.martin@cghs.com.au",
    "name": "Lake Guthridge Workout",
    "country": "Australia",
    "city": "Sale",
    "suburb": "",
    "state": "Victoria",
    "postcode": "3850",
    "location": "Lake Guthridge, Montgomery St end of lake at the car park",
    "time": "10am",
    "start_time": "10am",
    "finish_time": "",
    "image_path": "",
    "description": "Walking or jogging around the lake and doing the fitness stations while enjoying the natural beauty... üòÑ",
    "url": ""
  },
  {
    "objectID": "33",
    "priority": "3",
    "published": "yes",
    "submitted_by": "amylaurenfitness@gmail.com",
    "name": "Free Metafit",
    "country": "Australia",
    "city": "Leeton",
    "suburb": "",
    "state": "NSW",
    "postcode": "2705",
    "location": "Mountford Park",
    "time": "9:00am",
    "start_time": "9am",
    "finish_time": "",
    "image_path": "",
    "description": "The 30 minute body weight HIIT workout. Fun and quick.",
    "url": "https://www.facebook.com/events/1425869790836945/?ti=as"
  },
  {
    "objectID": "34",
    "priority": "3",
    "published": "yes",
    "submitted_by": "nisi0605@hotmail.com",
    "name": "Yoga on the Terrace",
    "country": "Australia",
    "city": "Torquay",
    "suburb": "",
    "state": "QLD",
    "postcode": "4655",
    "location": "8 cunningham st",
    "time": "9:00am ",
    "start_time": "9am",
    "finish_time": "",
    "image_path": "http://5c4cf848f6454dc02ec8-c49fe7e7355d384845270f4a7a0a7aa1.r53.cf2.rackcdn.com/6af43535-a7b5-446e-b679-64ba1e5b7194/IMG_4163.JPG",
    "description": "Lets do yoga on the terrace, feel the breeze, be active!",
    "url": ""
  },
  {
    "objectID": "35",
    "priority": "2",
    "published": "yes",
    "submitted_by": "eva.au@lornajane.hk",
    "name": "Active Nation Day - HK Vol.3 BarreAmped",
    "country": "Hong Kong",
    "city": "Hong Kong",
    "suburb": "",
    "state": "",
    "postcode": "00000",
    "location": "Barre 2 Barre Hong Kong - 4/F Cheung Hing Commercial Bldg. 37 Cochrane Street Central",
    "time": "15:00",
    "start_time": "3pm",
    "finish_time": "",
    "image_path": "",
    "description": "BarreAmped is a results-driven fitness method founded on the technique of dance, the mind body aspect of yoga, and the precision and core integration of Pilates. BarreAmped produces lengthening and chiseling results fast, using small isolated holds with tiny movements and tremendous mental connection. Expect a challenge and prepare to leave feeling calmly energized with this hands on personal group training session.",
    "url": "https://www.eventbrite.hk/e/active-nation-day-2017-hong-kong-chrissy-denton-hit45-and-barre2barre-tickets-37935363694"
  },
  {
    "objectID": "36",
    "priority": "3",
    "published": "yes",
    "submitted_by": "olarzeszowska@gmail.com",
    "name": "Active Nation Day 2-Hour Challange",
    "country": "Australia",
    "city": "Alice Springs",
    "suburb": "",
    "state": "Northern Territory",
    "postcode": "0870",
    "location": "13 Gap Rd, Get Physical Fitness and Squash Centre",
    "time": "3pm",
    "start_time": "3pm",
    "finish_time": "",
    "image_path": "http://5c4cf848f6454dc02ec8-c49fe7e7355d384845270f4a7a0a7aa1.r53.cf2.rackcdn.com/dd3a2dc4-006f-4178-bebd-f4481332fb6a/2-hour%20challange.png",
    "description": "We dare YOU! Face your biggest fear and workout for 2 hours with Get Physical! Like to compete? Dare a friend and join us together!",
    "url": "https://www.facebook.com/Get-Physical-104393062958102/"
  },
  {
    "objectID": "37",
    "priority": "3",
    "published": "yes",
    "submitted_by": "staceyc@xtendbarre.com",
    "name": "Active Nation Xtend Barre Labrador",
    "country": "Australia",
    "city": "Gold Coast",
    "suburb": "",
    "state": "Queensland",
    "postcode": "4215",
    "location": "26 Brisbane Road",
    "time": "8am",
    "start_time": "8am",
    "finish_time": "",
    "image_path": "http://5c4cf848f6454dc02ec8-c49fe7e7355d384845270f4a7a0a7aa1.r53.cf2.rackcdn.com/3408fd0e-72c3-499f-ba4a-881ecae78a6a/18582012_1339338869485333_6030138621129114668_n.jpg",
    "description": "Join us for a FREE Xtend Barre session for Active Nation Day! Xtend Barre is a 55 minute total body workout! Pilates and Dance Amplified! Developed from a dance/Pilates background, the Xtend Barre workout combines the amazing results of dance, with the principles of strength and safety in Pilates. Bring your friends and get active at Xtend Barre!",
    "url": "https://clients.mindbodyonline.com/classic/ws?studioid=38736&stype=-7&sView=day&sLoc=1&date=09/24/17"
  },
  {
    "objectID": "38",
    "priority": "2",
    "published": "yes",
    "submitted_by": "jaclyn.maginnis@lornajane.com.au",
    "name": "Johannesburg Active Nation Day",
    "country": "South Africa",
    "city": "Johannesburg",
    "suburb": "",
    "state": "",
    "postcode": "2021",
    "location": "The Pivot, 1 Montecasino Blvd, Fourways, ",
    "time": "7am",
    "start_time": "7am",
    "finish_time": "",
    "image_path": "",
    "description": "This event is FREE of charge but you have to get your free ticket online. This ticket will enable you to REGISTER on the day at the event. TICKETS ARE LIMITED! The first 100 ladies to REGISTER ON THE DAY, at the event, will receive a fabulous LORNA JANE GOODIE BAG!",
    "url": "http://qkt.io/8F0KDo"
  },
  {
    "objectID": "39",
    "priority": "2",
    "published": "yes",
    "submitted_by": "eva.au@lornajane.hk",
    "name": "Active Nation Day Hong Kong with Chrissy Denton",
    "country": "Hong Kong",
    "city": "Hong Kong",
    "suburb": "",
    "state": "Hong Kong",
    "postcode": "00000",
    "location": "Tamar Park",
    "time": "10am",
    "start_time": "10am",
    "finish_time": "11am",
    "image_path": "http://5c4cf848f6454dc02ec8-c49fe7e7355d384845270f4a7a0a7aa1.r53.cf2.rackcdn.com/f529914c-e868-4737-a2ca-c2548bf1da72/0917_ActiveNationDay_Social.jpg",
    "description": "Total body circuit - join Chrissy for a dynamic & interactive circuit class on Lorna Janes 'Active Nation Day'!",
    "url": "https://www.eventbrite.hk/e/active-nation-day-2017-hong-kong-chrissy-denton-hit45-and-barre2barre-tickets-37935363694"
  },
  {
    "objectID": "40",
    "priority": "3",
    "published": "yes",
    "submitted_by": "brenna.snowdon@fglsports.com",
    "name": "AND SCW x Lorna Jane x Live YYC",
    "country": "Canada",
    "city": "Calgary",
    "suburb": "",
    "state": "Alberta",
    "postcode": "T2G 1K5",
    "location": "Live YYC, 530 6 Avenue SE",
    "time": "11am",
    "start_time": "11am",
    "finish_time": "",
    "image_path": "http://5c4cf848f6454dc02ec8-c49fe7e7355d384845270f4a7a0a7aa1.r53.cf2.rackcdn.com/f1779058-a504-4620-b949-248670c13462/0917_ActiveNationDay_240x160-22.jpg",
    "description": "Love You: Spin, Yoga, or Row: Post-Sweat Social",
    "url": "https://www.eventbrite.com/e/active-nation-day-scw-x-lorna-jane-x-live-yyc-tickets-37863944076"
  },
  {
    "objectID": "41",
    "priority": "3",
    "published": "yes",
    "submitted_by": "missnique@live.com.au",
    "name": "Breathe 24/7 North Lakes",
    "country": "Australia",
    "city": "Brisbane",
    "suburb": "North Lakes",
    "state": "Queensland",
    "postcode": "4509",
    "location": "Level 1, 1 North Lakes Drive",
    "time": "8.30am",
    "start_time": "8.30am",
    "finish_time": "",
    "image_path": "http://5c4cf848f6454dc02ec8-c49fe7e7355d384845270f4a7a0a7aa1.r53.cf2.rackcdn.com/3331f6a4-1d18-41ec-bb86-8337a266c33e/Untitled%20design.jpg",
    "description": "8.30am Les Mills Body Pump & 9.30am Les Mills RPM",
    "url": "https://www.facebook.com/events/471460613238286/"
  },
  {
    "objectID": "42",
    "priority": "2",
    "published": "yes",
    "submitted_by": "info@zamayoga.com.au",
    "name": "Active Nation Yoga Toowong",
    "country": "Australia",
    "city": "Brisbane",
    "suburb": "Toowong",
    "state": "Queensland",
    "postcode": "4066",
    "location": "Lorna Jane Toowong Village Shopping Center",
    "time": "7:30am",
    "start_time": "7:30am",
    "finish_time": "",
    "image_path": "",
    "description": "Enjoy a 1 hour Yoga class at the Lorna Jane Toowong Village store with one of the fantastically skilled and very beautiful Yoga instructors from Zama Yoga in Toowong. Get into store early to flow through a powerful Yoga class and have the luxury of a private shop before the store opens!",
    "url": ""
  },
  {
    "objectID": "43",
    "priority": "2",
    "published": "yes",
    "submitted_by": "eva.au@lornajane.hk",
    "name": "Active Nation Day Hong Kong - Vol. 2A Hit45",
    "country": "Hong Kong",
    "city": "Hong Kong",
    "suburb": "",
    "state": "",
    "postcode": "00000",
    "location": "1/F, Abdoolally House, 20 Stanley Street, Central",
    "time": "12:00",
    "start_time": "12:00",
    "finish_time": "13:00",
    "image_path": "http://5c4cf848f6454dc02ec8-c49fe7e7355d384845270f4a7a0a7aa1.r53.cf2.rackcdn.com/c6f243f6-7215-45c3-b143-375d4f1a3faa/0917_ActiveNationDay_Social.jpg",
    "description": "At HIT45 you will be warmed up by our professional trainers using a mix of cardio, body weight, and flexibility exercises. We'll get you nice and warmed up and ready to smash the workout before you know it! Be prepared to burn lots of calories in just 45 minutes - a mix of cardio, free weightsand body weight exercises to help you burn fat, build strength, tone up and improve your fitness levels.",
    "url": "https://www.eventbrite.hk/e/active-nation-day-2017-hong-kong-chrissy-denton-hit45-and-barre2barre-tickets-37935363694"
  },
  {
    "objectID": "44",
    "priority": "2",
    "published": "yes",
    "submitted_by": "samantha.sangsingkaew@lornajane.co.th",
    "name": "Let's Move in the Park",
    "country": "Thailand",
    "city": "Bangkok",
    "suburb": "",
    "state": "",
    "postcode": "10330",
    "location": "Lumpini Park",
    "time": "17:00",
    "start_time": "17:00",
    "finish_time": "",
    "image_path": "",
    "description": "An afternoon of active living by moving our bodies through a walk in the park.",
    "url": ""
  },
  {
    "objectID": "45",
    "priority": "3",
    "published": "yes",
    "submitted_by": "white_alex@hotmail.com",
    "name": "Active Living Day C√¥te d'Azur",
    "country": "France",
    "city": "Valbone",
    "suburb": "",
    "state": "",
    "postcode": "06560",
    "location": "Provence alps C√¥te d azur",
    "time": "9:00",
    "start_time": "9:00",
    "finish_time": "",
    "image_path": "http://5c4cf848f6454dc02ec8-c49fe7e7355d384845270f4a7a0a7aa1.r53.cf2.rackcdn.com/27ada057-3925-4d03-8455-73ffec9af352/ald.jpg",
    "description": "A community collaborative event under the umbrella of Lorna Jane Active Nation Day bringing into focus the MNB philosophy and all coming together to celebrate all thing Active Living! Join the Active Living CDA Facebook group.",
    "url": "https://www.facebook.com/events/1769543830005431/?ti=icl"
  },
  {
    "objectID": "46",
    "priority": "3",
    "published": "yes",
    "submitted_by": "info@rokhfit.com.au",
    "name": "Pilates & Aerial Yoga",
    "country": "Australia",
    "city": "Gold Coast",
    "suburb": "Burleigh Heads",
    "state": "Queensland",
    "postcode": "4220",
    "location": "2/25 Leda Drive",
    "time": "9am",
    "start_time": "9am",
    "finish_time": "",
    "image_path": "http://5c4cf848f6454dc02ec8-c49fe7e7355d384845270f4a7a0a7aa1.r53.cf2.rackcdn.com/66c9a969-8de8-4f88-aa85-7dea8f796af2/Lorna_Jane_Poster_A1%20copy.jpg",
    "description": "To celebrate Lorna Jane's World Active Day we are excited to provide the Gold Coast community with a free event at Rokh Fit Studio in Burleigh Heads. At 9am we have an open level Pilates class run by owner and instructor Amy, and at 10am we have an open level Aerial Yoga class run by owner and instructor Phoebe.",
    "url": "https://www.facebook.com/pg/rokhfit/events/?ref=page_internal"
  },
  {
    "objectID": "47",
    "priority": "2",
    "published": "yes",
    "submitted_by": "jessie.dean@lornajane.com.au",
    "name": "Active Nation Day | SCW x Lorna Jane x Live YYC",
    "country": "Canada",
    "city": "Southeast Calgary",
    "suburb": "",
    "state": "Calgary",
    "postcode": "AB T2G 1K5",
    "location": "Live YYC 530 6 Avenue",
    "time": "11am",
    "start_time": "11am",
    "finish_time": "1pm",
    "image_path": "",
    "description": "Join us for the first Lorna Jane Active Nation Day in Canada! Connect on a mental, emotional, and intellectual level in our Love You session, led by Feminine Power Coach, Kelly Newman, you will sweat it out for 50 minutes in 1 of 3 classes, taught by one of Live YYC's fabulous instructors. Complete your day in our post-sweat social, with healthy treats from local vendors, taking the opportunity to connect with old friends, and make some new ones.",
    "url": "https://www.eventbrite.com/e/active-nation-day-scw-x-lorna-jane-x-live-yyc-tickets-37863944076"
  },
  {
    "objectID": "48",
    "priority": "3",
    "published": "yes",
    "submitted_by": "tracey@breakingpoint.com.au",
    "name": "Social CrossFit Class",
    "country": "Australia",
    "city": "Brisbane",
    "suburb": "North Lakes",
    "state": "",
    "postcode": "4509",
    "location": "3/29 Flinders Parade",
    "time": "9am",
    "start_time": "9am",
    "finish_time": "",
    "image_path": "",
    "description": "Come along and have some fun. If you have never tried CrossFit before, now might be the time to give it a go. Friendly environment - no pressure!",
    "url": ""
  },
  {
    "objectID": "49",
    "priority": "3",
    "published": "yes",
    "submitted_by": "altheamoses@me.com",
    "name": "Get Active with Althea",
    "country": "United States",
    "city": "Los Angeles",
    "suburb": "",
    "state": "CA",
    "postcode": "90008",
    "location": "Rancho Cienega Park",
    "time": "9am",
    "start_time": "9am",
    "finish_time": "",
    "image_path": "http://5c4cf848f6454dc02ec8-c49fe7e7355d384845270f4a7a0a7aa1.r53.cf2.rackcdn.com/5e6cd130-aa6c-4b5e-86dd-05317132aac0/IMG_4336.JPG",
    "description": "Let's get active with Olympian Althea Moses. Come move your body with Althea - perform HIIT exercise and affirm yourself into shape too.",
    "url": ""
  },
  {
    "objectID": "50",
    "priority": "2",
    "published": "yes",
    "submitted_by": "eva.au@lornajane.hk",
    "name": "Get Active with Althea",
    "country": "Hong Kong",
    "city": "Hong Kong",
    "suburb": "",
    "state": "",
    "postcode": "90008",
    "location": "1/F, Abdoolally House, 20 Stanley Street, Central, Hong Kong",
    "time": "9am",
    "start_time": "9am",
    "finish_time": "",
    "image_path": "http://5c4cf848f6454dc02ec8-c49fe7e7355d384845270f4a7a0a7aa1.r53.cf2.rackcdn.com/5e6cd130-aa6c-4b5e-86dd-05317132aac0/IMG_4336.JPG",
    "description": "At HIT45 you will be warmed up by our professional trainers using a mix of cardio, body weight, and flexibility exercises. We'll get you nice and warmed up and ready to smash the workout before you know it! Be prepared to burn lots of calories in just 45 minutes - a mix of cardio, free weights and body weight exercises to help you burn fat, build strength, tone up and improve your fitness levels.",
    "url": "https://www.eventbrite.hk/e/active-nation-day-2017-hong-kong-chrissy-denton-hit45-and-barre2barre-tickets-37935363694"
  }

]